{"version": 0.6, "generator": "Overpass API 0.7.62.1 084b4234", "osm3s": {"timestamp_osm_base": "2024-10-16T20:35:50Z", "copyright": "The data included in this document is from www.openstreetmap.org. The data is made available under ODbL."}, "elements": [{"type": "node", "id": 4572006264, "lat": 26.6342514, "lon": 92.7964403}, {"type": "node", "id": 4572006265, "lat": 26.6341544, "lon": 92.7964242}, {"type": "node", "id": 4572006266, "lat": 26.6341876, "lon": 92.7961738}, {"type": "node", "id": 4572006267, "lat": 26.6342845, "lon": 92.7961898}, {"type": "node", "id": 7537159752, "lat": 26.6331328, "lon": 92.7954425, "tags": {"addr:district": "Sonitpur", "addr:full": "Darrang College W Road, Mahabhairab, Tezpur", "addr:postcode": "784001", "addr:state": "Assam", "amenity": "doctors", "name": "Dr. H.K. Borah", "source": "Local Knowledge"}}, {"type": "node", "id": 7537159794, "lat": 26.6331746, "lon": 92.795314, "tags": {"addr:district": "Sonitpur", "addr:full": "Near Pradipbhawan, Darrang College W Road, Mahabhairab, Tezpur", "addr:postcode": "784001", "addr:state": "Assam", "amenity": "doctors", "name": "Dr. K. C. Borkotoky", "source": "Local Knowledge"}}, {"type": "node", "id": 11356647170, "lat": 26.6366294, "lon": 92.796212, "tags": {"amenity": "library", "internet_access": "wlan", "name": "Darrang College Central Library"}}, {"type": "node", "id": 11356647182, "lat": 26.6367832, "lon": 92.7969568, "tags": {"amenity": "college", "name": "Darrang College Play Ground"}}, {"type": "way", "id": 461736638, "nodes": [4572006264, 4572006265, 4572006266, 4572006267, 4572006264], "tags": {"amenity": "place_of_worship", "building": "temple", "check_date": "2023-09-03", "name": "Mahabhairab Mandir", "religion": "hindu"}}]}